{
  "teller1": {
    "lat": 48.87167,
    "lng": 2.31099,
    "countryId": "FR",
    "postalCode": "75008",
    "avatarId": 4,
    "currencyId": 2,
    "messenger": "mehdi_dether",
    "rates": 30
  },
  "teller2": {
    "lat": 48.93691,
    "lng": 2.44612,
    "countryId": "FR",
    "postalCode": "75009",
    "avatarId": 1,
    "currencyId": 2,
    "messenger": "teller2",
    "rates": 30
  },
  "teller3": {
    "lat": "48.88817",
    "lng": "2.42741",
    "countryId": "FR",
    "postalCode": "75009",
    "avatarId": "03",
    "currencyId": "2",
    "messenger": "teller3",
    "rates": "300"
  },
  "teller4": {
    "lat": "48.86849",
    "lng": "2.30473",
    "countryId": "FR",
    "postalCode": "75009",
    "avatarId": "02",
    "currencyId": "2",
    "messenger": "teller1",
    "rates": "300"
  },
  "teller5": {
    "lat": "48.86301",
    "lng": "2.31993",
    "countryId": "FR",
    "postalCode": "75009",
    "avatarId": "05",
    "currencyId": "2",
    "messenger": "teller2",
    "rates": "300"
  },
  "teller6": {
    "lat": "48.86747",
    "lng": "2.34092",
    "countryId": "FR",
    "postalCode": "75009",
    "avatarId": "06",
    "currencyId": "2",
    "messenger": "teller3",
    "rates": "300"
  },
  "shop1": {
    "lat": 48.86528,
    "lng": 2.30423,
    "countryId": "FR",
    "postalCode": "75016",
    "cat": "restaurant",
    "name": "Au bon chaillot",
    "description": "A la bonne franquette",
    "opening": "qNqNqNqNqN00"
  },
  "shop2": {
    "lat": "48.86977",
    "lng": "2.30944",
    "countryId": "FR",
    "postalCode": "75008",
    "cat": "sport",
    "name": "ADIDAS",
    "description": "My cryptos, my ADIDAS!",
    "opening": "qNqNqNqNqN00"
  },
  "shop3": {
    "lat": "48.87179",
    "lng": "2.33202",
    "countryId": "FR",
    "postalCode": "75009",
    "cat": "art",
    "name": "Opera garnier",
    "description": "Pay your opera in ETH",
    "opening": "qNqNqNqNqN00"
  },
  "shop4": {
    "lat": "48.86235",
    "lng": "2.34634",
    "countryId": "FR",
    "postalCode": "75001",
    "cat": "commerce",
    "name": "forum des halles",
    "description": "Pay in ETH in forum des halles",
    "opening": "qNqNqNqNqN00"
  },
  "shop5": {
    "lat": "48.86762",
    "lng": "2.34995",
    "countryId": "FR",
    "postalCode": "75002",
    "cat": "crypto",
    "name": "La maison du bitcoin",
    "description": "Buy or sell your crypto",
    "opening": "qNqNqNqNqN00"
  },
  "shop6": {
    "lat": "48.83342",
    "lng": "2.38751",
    "countryId": "FR",
    "postalCode": "75012",
    "cat": "restaurant",
    "name": "Five Guys",
    "description": "Enjoy your burger, pay in ETH!",
    "opening": "qNqNqNqNqN00"
  },
  "shop7": {
    "lat": "48.86521",
    "lng": "2.30429",
    "countryId": "FR",
    "postalCode": "75016",
    "cat": "restaurant",
    "name": "Au bon chaillot",
    "description": "A la bonne franquette",
    "opening": "qNqNqNqNqN00"
  }
}
